[
  {
     "countryCode":"AF",
     "name":"Afghanistan",
     "population":"35530081",
     "coordinates":{
        "latitude":33,
        "longitude":65
     }
  },
  {
     "countryCode":"AL",
     "name":"Albania",
     "population":"2930187",
     "coordinates":{
        "latitude":41.1533,
        "longitude":20.1683
     }
  },
  {
     "countryCode":"DZ",
     "name":"Algeria",
     "population":"41318142",
     "coordinates":{
        "latitude":28.0339,
        "longitude":1.6596
     }
  },
  {
     "countryCode":"AD",
     "name":"Andorra",
     "population":"76965",
     "coordinates":{
        "latitude":42.5063,
        "longitude":1.5218
     }
  },
  {
     "countryCode":"AO",
     "name":"Angola",
     "population":"29784193",
     "coordinates":{
        "latitude":-11.2027,
        "longitude":17.8739
     }
  },
  {
     "countryCode":"AG",
     "name":"Antigua and Barbuda",
     "population":"102012",
     "coordinates":{
        "latitude":17.0608,
        "longitude":-61.7964
     }
  },
  {
     "countryCode":"AR",
     "name":"Argentina",
     "population":"44271041",
     "coordinates":{
        "latitude":-38.4161,
        "longitude":-63.6167
     }
  },
  {
     "countryCode":"AM",
     "name":"Armenia",
     "population":"2930450",
     "coordinates":{
        "latitude":40.0691,
        "longitude":45.0382
     }
  },
  {
     "countryCode":"AU",
     "name":"Australia",
     "population":"24450561",
     "coordinates":{
        "latitude":-35.4735,
        "longitude":149.0124
     }
  },
  {
     "countryCode":"AT",
     "name":"Austria",
     "population":"8735453",
     "coordinates":{
        "latitude":47.5162,
        "longitude":14.5501
     }
  },
  {
     "countryCode":"AZ",
     "name":"Azerbaijan",
     "population":"9827589",
     "coordinates":{
        "latitude":40.1431,
        "longitude":47.5769
     }
  },
  {
     "countryCode":"XX",
     "name":"Bahamas",
     "population":"395361",
     "coordinates":{
        "latitude":25.0343,
        "longitude":-77.3963
     }
  },
  {
     "countryCode":"BH",
     "name":"Bahrain",
     "population":"1492584",
     "coordinates":{
        "latitude":26.0275,
        "longitude":50.55
     }
  },
  {
     "countryCode":"BD",
     "name":"Bangladesh",
     "population":"164669751",
     "coordinates":{
        "latitude":23.685,
        "longitude":90.3563
     }
  },
  {
     "countryCode":"BB",
     "name":"Barbados",
     "population":"285719",
     "coordinates":{
        "latitude":13.1939,
        "longitude":-59.5432
     }
  },
  {
     "countryCode":"BY",
     "name":"Belarus",
     "population":"9468338",
     "coordinates":{
        "latitude":53.7098,
        "longitude":27.9534
     }
  },
  {
     "countryCode":"BE",
     "name":"Belgium",
     "population":"11429336",
     "coordinates":{
        "latitude":50.8333,
        "longitude":4
     }
  },
  {
     "countryCode":"BZ",
     "name":"Belize",
     "population":"374681",
     "coordinates":{
        "latitude":13.1939,
        "longitude":-59.5432
     }
  },
  {
     "countryCode":"BJ",
     "name":"Benin",
     "population":"11175692",
     "coordinates":{
        "latitude":9.3077,
        "longitude":2.3158
     }
  },
  {
     "countryCode":"BT",
     "name":"Bhutan",
     "population":"807610",
     "coordinates":{
        "latitude":27.5142,
        "longitude":90.4336
     }
  },
  {
     "countryCode":"BO",
     "name":"Bolivia",
     "population":"11051600",
     "coordinates":{
        "latitude":-16.2902,
        "longitude":-63.5887
     }
  },
  {
     "countryCode":"BA",
     "name":"Bosnia and Herzegovina",
     "population":"3507017",
     "coordinates":{
        "latitude":43.9159,
        "longitude":17.6791
     }
  },
  {
     "countryCode":"BW",
     "name":"Botswana",
     "population":"2291661",
     "coordinates":{
        "latitude":-22.3285,
        "longitude":24.6849
     }
  },
  {
     "countryCode":"BR",
     "name":"Brazil",
     "population":"209288278",
     "coordinates":{
        "latitude":-14.235,
        "longitude":-51.9253
     }
  },
  {
     "countryCode":"BN",
     "name":"Brunei",
     "population":"428697",
     "coordinates":{
        "latitude":4.5353,
        "longitude":114.7277
     }
  },
  {
     "countryCode":"BG",
     "name":"Bulgaria",
     "population":"7084571",
     "coordinates":{
        "latitude":42.7339,
        "longitude":25.4858
     }
  },
  {
     "countryCode":"BF",
     "name":"Burkina Faso",
     "population":"19193382",
     "coordinates":{
        "latitude":12.2383,
        "longitude":-1.5616
     }
  },
  {
     "countryCode":"BI",
     "name":"Burundi",
     "population":"10864245",
     "coordinates":{
        "latitude":-3.3731,
        "longitude":29.9189
     }
  },
  {
     "countryCode":"KH",
     "name":"Cambodia",
     "population":"16005373",
     "coordinates":{
        "latitude":11.55,
        "longitude":104.9167
     }
  },
  {
     "countryCode":"CM",
     "name":"Cameroon",
     "population":"24053727",
     "coordinates":{
        "latitude":3.848,
        "longitude":11.5021
     }
  },
  {
     "countryCode":"CA",
     "name":"Canada",
     "population":"36624199",
     "coordinates":{
        "latitude":53.9333,
        "longitude":-116.5765
     }
  },
  {
     "countryCode":"CF",
     "name":"Central African Republic",
     "population":"4659080",
     "coordinates":{
        "latitude":6.6111,
        "longitude":20.9394
     }
  },
  {
     "countryCode":"TD",
     "name":"Chad",
     "population":"14899994",
     "coordinates":{
        "latitude":15.4542,
        "longitude":18.7322
     }
  },
  {
     "countryCode":"CL",
     "name":"Chile",
     "population":"18054726",
     "coordinates":{
        "latitude":-35.6751,
        "longitude":-71.543
     }
  },
  {
     "countryCode":"CN",
     "name":"China",
     "population":"1409517397",
     "coordinates":{
        "latitude":31.8257,
        "longitude":117.2264
     }
  },
  {
     "countryCode":"CO",
     "name":"Colombia",
     "population":"49065615",
     "coordinates":{
        "latitude":4.5709,
        "longitude":-74.2973
     }
  },
  {
     "countryCode":"CR",
     "name":"Costa Rica",
     "population":"4905769",
     "coordinates":{
        "latitude":9.7489,
        "longitude":-83.7534
     }
  },
  {
     "countryCode":"HR",
     "name":"Croatia",
     "population":"4189353",
     "coordinates":{
        "latitude":45.1,
        "longitude":15.2
     }
  },
  {
     "countryCode":"CU",
     "name":"Cuba",
     "population":"11484636",
     "coordinates":{
        "latitude":22,
        "longitude":-80
     }
  },
  {
     "countryCode":"CY",
     "name":"Cyprus",
     "population":"1179551",
     "coordinates":{
        "latitude":35.1264,
        "longitude":33.4299
     }
  },
  {
     "countryCode":"DK",
     "name":"Denmark",
     "population":"5733551",
     "coordinates":{
        "latitude":61.8926,
        "longitude":-6.9118
     }
  },
  {
     "countryCode":"DJ",
     "name":"Djibouti",
     "population":"956985",
     "coordinates":{
        "latitude":11.8251,
        "longitude":42.5903
     }
  },
  {
     "countryCode":"DM",
     "name":"Dominica",
     "population":"73925",
     "coordinates":{
        "latitude":15.415,
        "longitude":-61.371
     }
  },
  {
     "countryCode":"DO",
     "name":"Dominican Republic",
     "population":"10766998",
     "coordinates":{
        "latitude":18.7357,
        "longitude":-70.1627
     }
  },
  {
     "countryCode":"EC",
     "name":"Ecuador",
     "population":"16624858",
     "coordinates":{
        "latitude":-1.8312,
        "longitude":-78.1834
     }
  },
  {
     "countryCode":"EG",
     "name":"Egypt",
     "population":"97553151",
     "coordinates":{
        "latitude":26,
        "longitude":30
     }
  },
  {
     "countryCode":"SV",
     "name":"El Salvador",
     "population":"6377853",
     "coordinates":{
        "latitude":13.7942,
        "longitude":-88.8965
     }
  },
  {
     "countryCode":"GQ",
     "name":"Equatorial Guinea",
     "population":"1267689",
     "coordinates":{
        "latitude":1.5,
        "longitude":10
     }
  },
  {
     "countryCode":"ER",
     "name":"Eritrea",
     "population":"5068831",
     "coordinates":{
        "latitude":15.1794,
        "longitude":39.7823
     }
  },
  {
     "countryCode":"EE",
     "name":"Estonia",
     "population":"1309632",
     "coordinates":{
        "latitude":58.5953,
        "longitude":25.0136
     }
  },
  {
     "countryCode":"ET",
     "name":"Ethiopia",
     "population":"104957438",
     "coordinates":{
        "latitude":9.145,
        "longitude":40.4897
     }
  },
  {
     "countryCode":"FI",
     "name":"Finland",
     "population":"5523231",
     "coordinates":{
        "latitude":64,
        "longitude":26
     }
  },
  {
     "countryCode":"FR",
     "name":"France",
     "population":"64979548",
     "coordinates":{
        "latitude":3.9339,
        "longitude":-53.1258
     }
  },
  {
     "countryCode":"GA",
     "name":"Gabon",
     "population":"2025137",
     "coordinates":{
        "latitude":-0.8037,
        "longitude":11.6094
     }
  },
  {
     "countryCode":"GM",
     "name":"Gambia",
     "population":"2100568",
     "coordinates":{
        "latitude":13.4432,
        "longitude":-15.3101
     }
  },
  {
     "countryCode":"GE",
     "name":"Georgia",
     "population":"3912061",
     "coordinates":{
        "latitude":42.3154,
        "longitude":43.3569
     }
  },
  {
     "countryCode":"DE",
     "name":"Germany",
     "population":"82114224",
     "coordinates":{
        "latitude":51,
        "longitude":9
     }
  },
  {
     "countryCode":"GH",
     "name":"Ghana",
     "population":"28833629",
     "coordinates":{
        "latitude":7.9465,
        "longitude":-1.0232
     }
  },
  {
     "countryCode":"GR",
     "name":"Greece",
     "population":"11159773",
     "coordinates":{
        "latitude":39.0742,
        "longitude":21.8243
     }
  },
  {
     "countryCode":"GD",
     "name":"Grenada",
     "population":"107825",
     "coordinates":{
        "latitude":12.1165,
        "longitude":-61.679
     }
  },
  {
     "countryCode":"GT",
     "name":"Guatemala",
     "population":"16913503",
     "coordinates":{
        "latitude":15.7835,
        "longitude":-90.2308
     }
  },
  {
     "countryCode":"GN",
     "name":"Guinea",
     "population":"12717176",
     "coordinates":{
        "latitude":9.9456,
        "longitude":-9.6966
     }
  },
  {
     "countryCode":"GW",
     "name":"Guinea-Bissau",
     "population":"1861283",
     "coordinates":{
        "latitude":11.8037,
        "longitude":-15.1804
     }
  },
  {
     "countryCode":"GY",
     "name":"Guyana",
     "population":"777859",
     "coordinates":{
        "latitude":5,
        "longitude":-58.75
     }
  },
  {
     "countryCode":"HT",
     "name":"Haiti",
     "population":"10981229",
     "coordinates":{
        "latitude":18.9712,
        "longitude":-72.2852
     }
  },
  {
     "countryCode":"HN",
     "name":"Honduras",
     "population":"9265067",
     "coordinates":{
        "latitude":15.2,
        "longitude":-86.2419
     }
  },
  {
     "countryCode":"HU",
     "name":"Hungary",
     "population":"9721559",
     "coordinates":{
        "latitude":47.1625,
        "longitude":19.5033
     }
  },
  {
     "countryCode":"IS",
     "name":"Iceland",
     "population":"335025",
     "coordinates":{
        "latitude":64.9631,
        "longitude":-19.0208
     }
  },
  {
     "countryCode":"IN",
     "name":"India",
     "population":"1339180127",
     "coordinates":{
        "latitude":21,
        "longitude":78
     }
  },
  {
     "countryCode":"ID",
     "name":"Indonesia",
     "population":"263991379",
     "coordinates":{
        "latitude":-0.7893,
        "longitude":113.9213
     }
  },
  {
     "countryCode":"IR",
     "name":"Iran",
     "population":"81162788",
     "coordinates":{
        "latitude":32,
        "longitude":53
     }
  },
  {
     "countryCode":"IQ",
     "name":"Iraq",
     "population":"38274618",
     "coordinates":{
        "latitude":33,
        "longitude":44
     }
  },
  {
     "countryCode":"IE",
     "name":"Ireland",
     "population":"4761657",
     "coordinates":{
        "latitude":53.1424,
        "longitude":-7.6921
     }
  },
  {
     "countryCode":"IL",
     "name":"Israel",
     "population":"8321570",
     "coordinates":{
        "latitude":31,
        "longitude":35
     }
  },
  {
     "countryCode":"IT",
     "name":"Italy",
     "population":"59359900",
     "coordinates":{
        "latitude":43,
        "longitude":12
     }
  },
  {
     "countryCode":"JM",
     "name":"Jamaica",
     "population":"2890299",
     "coordinates":{
        "latitude":18.1096,
        "longitude":-77.2975
     }
  },
  {
     "countryCode":"JP",
     "name":"Japan",
     "population":"127484450",
     "coordinates":{
        "latitude":36,
        "longitude":138
     }
  },
  {
     "countryCode":"JO",
     "name":"Jordan",
     "population":"9702353",
     "coordinates":{
        "latitude":31.24,
        "longitude":36.51
     }
  },
  {
     "countryCode":"KZ",
     "name":"Kazakhstan",
     "population":"18204499",
     "coordinates":{
        "latitude":48.0196,
        "longitude":66.9237
     }
  },
  {
     "countryCode":"KE",
     "name":"Kenya",
     "population":"49699862",
     "coordinates":{
        "latitude":-0.0236,
        "longitude":37.9062
     }
  },
  {
     "countryCode":"KW",
     "name":"Kuwait",
     "population":"4136528",
     "coordinates":{
        "latitude":29.5,
        "longitude":47.75
     }
  },
  {
     "countryCode":"KG",
     "name":"Kyrgyzstan",
     "population":"6045117",
     "coordinates":{
        "latitude":41.2044,
        "longitude":74.7661
     }
  },
  {
     "countryCode":"XX",
     "name":"Laos",
     "population":"6858160",
     "coordinates":{
        "latitude":19.85627,
        "longitude":102.495496
     }
  },
  {
     "countryCode":"LV",
     "name":"Latvia",
     "population":"1949670",
     "coordinates":{
        "latitude":56.8796,
        "longitude":24.6032
     }
  },
  {
     "countryCode":"LB",
     "name":"Lebanon",
     "population":"6082357",
     "coordinates":{
        "latitude":33.8547,
        "longitude":35.8623
     }
  },
  {
     "countryCode":"LR",
     "name":"Liberia",
     "population":"4731906",
     "coordinates":{
        "latitude":6.4281,
        "longitude":-9.4295
     }
  },
  {
     "countryCode":"LI",
     "name":"Liechtenstein",
     "population":"37922",
     "coordinates":{
        "latitude":47.14,
        "longitude":9.55
     }
  },
  {
     "countryCode":"LT",
     "name":"Lithuania",
     "population":"2890297",
     "coordinates":{
        "latitude":55.1694,
        "longitude":23.8813
     }
  },
  {
     "countryCode":"LU",
     "name":"Luxembourg",
     "population":"583455",
     "coordinates":{
        "latitude":49.8153,
        "longitude":6.1296
     }
  },
  {
     "countryCode":"MK",
     "name":"North Macedonia",
     "population":"2024000",
     "coordinates":{
        "latitude":41.6086,
        "longitude":21.7453
     }
  },
  {
     "countryCode":"MG",
     "name":"Madagascar",
     "population":"25570895",
     "coordinates":{
        "latitude":-18.7669,
        "longitude":46.8691
     }
  },
  {
     "countryCode":"MW",
     "name":"Malawi",
     "population":"18622104",
     "coordinates":{
        "latitude":-13.254307999999998,
        "longitude":34.301525
     }
  },
  {
     "countryCode":"MY",
     "name":"Malaysia",
     "population":"31624264",
     "coordinates":{
        "latitude":2.5,
        "longitude":112.5
     }
  },
  {
     "countryCode":"MV",
     "name":"Maldives",
     "population":"436330",
     "coordinates":{
        "latitude":3.2028,
        "longitude":73.2207
     }
  },
  {
     "countryCode":"ML",
     "name":"Mali",
     "population":"18541980",
     "coordinates":{
        "latitude":17.570692,
        "longitude":-3.996166000000001
     }
  },
  {
     "countryCode":"MT",
     "name":"Malta",
     "population":"430835",
     "coordinates":{
        "latitude":35.9375,
        "longitude":14.3754
     }
  },
  {
     "countryCode":"MR",
     "name":"Mauritania",
     "population":"4420184",
     "coordinates":{
        "latitude":21.0079,
        "longitude":10.9408
     }
  },
  {
     "countryCode":"MU",
     "name":"Mauritius",
     "population":"1265138",
     "coordinates":{
        "latitude":-20.2,
        "longitude":57.5
     }
  },
  {
     "countryCode":"MX",
     "name":"Mexico",
     "population":"129163276",
     "coordinates":{
        "latitude":23.6345,
        "longitude":-102.5528
     }
  },
  {
     "countryCode":"MD",
     "name":"Moldova",
     "population":"4051212",
     "coordinates":{
        "latitude":47.4116,
        "longitude":28.3699
     }
  },
  {
     "countryCode":"MC",
     "name":"Monaco",
     "population":"38695",
     "coordinates":{
        "latitude":43.7333,
        "longitude":7.4167
     }
  },
  {
     "countryCode":"MN",
     "name":"Mongolia",
     "population":"3075647",
     "coordinates":{
        "latitude":46.8625,
        "longitude":103.8467
     }
  },
  {
     "countryCode":"MA",
     "name":"Morocco",
     "population":"35739580",
     "coordinates":{
        "latitude":31.7917,
        "longitude":-7.0926
     }
  },
  {
     "countryCode":"MZ",
     "name":"Mozambique",
     "population":"29668834",
     "coordinates":{
        "latitude":-18.665695,
        "longitude":35.529562
     }
  },
  {
     "countryCode":"NA",
     "name":"Namibia",
     "population":"2533794",
     "coordinates":{
        "latitude":-22.9576,
        "longitude":18.4904
     }
  },
  {
     "countryCode":"NP",
     "name":"Nepal",
     "population":"29304998",
     "coordinates":{
        "latitude":28.1667,
        "longitude":84.25
     }
  },
  {
     "countryCode":"NL",
     "name":"Netherlands",
     "population":"17035938",
     "coordinates":{
        "latitude":12.5186,
        "longitude":-70.0358
     }
  },
  {
     "countryCode":"NZ",
     "name":"New Zealand",
     "population":"4705818",
     "coordinates":{
        "latitude":-40.9006,
        "longitude":174.886
     }
  },
  {
     "countryCode":"NI",
     "name":"Nicaragua",
     "population":"6217581",
     "coordinates":{
        "latitude":12.8654,
        "longitude":-85.2072
     }
  },
  {
     "countryCode":"NE",
     "name":"Niger",
     "population":"21477348",
     "coordinates":{
        "latitude":17.6078,
        "longitude":8.0817
     }
  },
  {
     "countryCode":"NG",
     "name":"Nigeria",
     "population":"190886311",
     "coordinates":{
        "latitude":9.082,
        "longitude":8.6753
     }
  },
  {
     "countryCode":"NO",
     "name":"Norway",
     "population":"5305383",
     "coordinates":{
        "latitude":60.472,
        "longitude":8.4689
     }
  },
  {
     "countryCode":"OM",
     "name":"Oman",
     "population":"4636262",
     "coordinates":{
        "latitude":21,
        "longitude":57
     }
  },
  {
     "countryCode":"PK",
     "name":"Pakistan",
     "population":"197015955",
     "coordinates":{
        "latitude":30.3753,
        "longitude":69.3451
     }
  },
  {
     "countryCode":"PA",
     "name":"Panama",
     "population":"4098587",
     "coordinates":{
        "latitude":8.538,
        "longitude":-80.7821
     }
  },
  {
     "countryCode":"PG",
     "name":"Papua New Guinea",
     "population":"8251162",
     "coordinates":{
        "latitude":-6.315,
        "longitude":143.9555
     }
  },
  {
     "countryCode":"PY",
     "name":"Paraguay",
     "population":"6811297",
     "coordinates":{
        "latitude":-23.4425,
        "longitude":-58.4438
     }
  },
  {
     "countryCode":"PE",
     "name":"Peru",
     "population":"32165485",
     "coordinates":{
        "latitude":-9.19,
        "longitude":-75.0152
     }
  },
  {
     "countryCode":"PH",
     "name":"Philippines",
     "population":"104918090",
     "coordinates":{
        "latitude":13,
        "longitude":122
     }
  },
  {
     "countryCode":"PL",
     "name":"Poland",
     "population":"38170712",
     "coordinates":{
        "latitude":51.9194,
        "longitude":19.1451
     }
  },
  {
     "countryCode":"PT",
     "name":"Portugal",
     "population":"10329506",
     "coordinates":{
        "latitude":39.3999,
        "longitude":-8.2245
     }
  },
  {
     "countryCode":"QA",
     "name":"Qatar",
     "population":"2639211",
     "coordinates":{
        "latitude":25.3548,
        "longitude":51.1839
     }
  },
  {
     "countryCode":"RO",
     "name":"Romania",
     "population":"19679306",
     "coordinates":{
        "latitude":45.9432,
        "longitude":24.9668
     }
  },
  {
     "countryCode":"RW",
     "name":"Rwanda",
     "population":"12208407",
     "coordinates":{
        "latitude":-1.9403,
        "longitude":29.8739
     }
  },
  {
     "countryCode":"KN",
     "name":"Saint Kitts and Nevis",
     "population":"55345",
     "coordinates":{
        "latitude":17.357822,
        "longitude":-62.782998
     }
  },
  {
     "countryCode":"LC",
     "name":"Saint Lucia",
     "population":"178844",
     "coordinates":{
        "latitude":13.9094,
        "longitude":-60.9789
     }
  },
  {
     "countryCode":"VC",
     "name":"Saint Vincent and the Grenadines",
     "population":"109897",
     "coordinates":{
        "latitude":12.9843,
        "longitude":-61.2872
     }
  },
  {
     "countryCode":"SM",
     "name":"San Marino",
     "population":"33400",
     "coordinates":{
        "latitude":43.9424,
        "longitude":12.4578
     }
  },
  {
     "countryCode":"ST",
     "name":"Sao Tome and Principe",
     "population":"204327",
     "coordinates":{
        "latitude":0.18636,
        "longitude":6.613081
     }
  },
  {
     "countryCode":"SA",
     "name":"Saudi Arabia",
     "population":"32938213",
     "coordinates":{
        "latitude":24,
        "longitude":45
     }
  },
  {
     "countryCode":"SN",
     "name":"Senegal",
     "population":"15850567",
     "coordinates":{
        "latitude":14.4974,
        "longitude":-14.4524
     }
  },
  {
     "countryCode":"SC",
     "name":"Seychelles",
     "population":"94737",
     "coordinates":{
        "latitude":-4.6796,
        "longitude":55.492
     }
  },
  {
     "countryCode":"SL",
     "name":"Sierra Leone",
     "population":"7557212",
     "coordinates":{
        "latitude":8.460555000000001,
        "longitude":-11.779889
     }
  },
  {
     "countryCode":"SG",
     "name":"Singapore",
     "population":"5708844",
     "coordinates":{
        "latitude":1.2833,
        "longitude":103.8333
     }
  },
  {
     "countryCode":"SK",
     "name":"Slovakia",
     "population":"5447662",
     "coordinates":{
        "latitude":48.669,
        "longitude":19.699
     }
  },
  {
     "countryCode":"SI",
     "name":"Slovenia",
     "population":"2079976",
     "coordinates":{
        "latitude":46.1512,
        "longitude":14.9955
     }
  },
  {
     "countryCode":"SO",
     "name":"Somalia",
     "population":"14742523",
     "coordinates":{
        "latitude":5.1521,
        "longitude":46.1996
     }
  },
  {
     "countryCode":"ZA",
     "name":"South Africa",
     "population":"56717156",
     "coordinates":{
        "latitude":-30.5595,
        "longitude":22.9375
     }
  },
  {
     "countryCode":"SS",
     "name":"South Sudan",
     "population":"12575714",
     "coordinates":{
        "latitude":6.877000000000002,
        "longitude":31.307
     }
  },
  {
     "countryCode":"ES",
     "name":"Spain",
     "population":"46354321",
     "coordinates":{
        "latitude":40,
        "longitude":-4
     }
  },
  {
     "countryCode":"SD",
     "name":"Sudan",
     "population":"40533330",
     "coordinates":{
        "latitude":12.8628,
        "longitude":30.2176
     }
  },
  {
     "countryCode":"SR",
     "name":"Suriname",
     "population":"563402",
     "coordinates":{
        "latitude":3.9193,
        "longitude":-56.0278
     }
  },
  {
     "countryCode":"SE",
     "name":"Sweden",
     "population":"9910701",
     "coordinates":{
        "latitude":63,
        "longitude":16
     }
  },
  {
     "countryCode":"CH",
     "name":"Switzerland",
     "population":"8476005",
     "coordinates":{
        "latitude":46.8182,
        "longitude":8.2275
     }
  },
  {
     "countryCode":"XX",
     "name":"Syria",
     "population":"18269868",
     "coordinates":{
        "latitude":34.802075,
        "longitude":38.99681500000001
     }
  },
  {
     "countryCode":"TZ",
     "name":"Tanzania",
     "population":"57310019",
     "coordinates":{
        "latitude":-6.369,
        "longitude":34.8888
     }
  },
  {
     "countryCode":"TH",
     "name":"Thailand",
     "population":"69037513",
     "coordinates":{
        "latitude":15,
        "longitude":101
     }
  },
  {
     "countryCode":"TG",
     "name":"Togo",
     "population":"7797694",
     "coordinates":{
        "latitude":8.6195,
        "longitude":0.8248
     }
  },
  {
     "countryCode":"TT",
     "name":"Trinidad and Tobago",
     "population":"1369125",
     "coordinates":{
        "latitude":10.6918,
        "longitude":-61.2225
     }
  },
  {
     "countryCode":"TN",
     "name":"Tunisia",
     "population":"11532127",
     "coordinates":{
        "latitude":34,
        "longitude":9
     }
  },
  {
     "countryCode":"TR",
     "name":"Turkey",
     "population":"80745020",
     "coordinates":{
        "latitude":38.9637,
        "longitude":35.2433
     }
  },
  {
     "countryCode":"UG",
     "name":"Uganda",
     "population":"42862958",
     "coordinates":{
        "latitude":1,
        "longitude":32
     }
  },
  {
     "countryCode":"UA",
     "name":"Ukraine",
     "population":"44222947",
     "coordinates":{
        "latitude":48.3794,
        "longitude":31.1656
     }
  },
  {
     "countryCode":"AE",
     "name":"United Arab Emirates",
     "population":"9400145",
     "coordinates":{
        "latitude":24,
        "longitude":54
     }
  },
  {
     "countryCode":"GB",
     "name":"United Kingdom",
     "population":"66181585",
     "coordinates":{
        "latitude":32.3078,
        "longitude":-64.7505
     }
  },
  {
     "countryCode":"US",
     "name":"United States",
     "population":"324459463",
     "coordinates":{
        "latitude":37.0902,
        "longitude":-95.7129
     }
  },
  {
     "countryCode":"UY",
     "name":"Uruguay",
     "population":"3456750",
     "coordinates":{
        "latitude":-32.5228,
        "longitude":-55.7658
     }
  },
  {
     "countryCode":"UZ",
     "name":"Uzbekistan",
     "population":"31910641",
     "coordinates":{
        "latitude":41.3775,
        "longitude":64.5853
     }
  },
  {
     "countryCode":"XX",
     "name":"Venezuela",
     "population":"31977065",
     "coordinates":{
        "latitude":6.4238,
        "longitude":-66.5897
     }
  },
  {
     "countryCode":"VN",
     "name":"Vietnam",
     "population":"95540800",
     "coordinates":{
        "latitude":16,
        "longitude":108
     }
  },
  {
     "countryCode":"EH",
     "name":"Western Sahara",
     "population":"552628",
     "coordinates":{
        "latitude":24.2155,
        "longitude":-12.8858
     }
  },
  {
     "countryCode":"YE",
     "name":"Yemen",
     "population":"28250420",
     "coordinates":{
        "latitude":15.552727,
        "longitude":48.516388
     }
  },
  {
     "countryCode":"ZM",
     "name":"Zambia",
     "population":"17094130",
     "coordinates":{
        "latitude":-15.4167,
        "longitude":28.2833
     }
  },
  {
     "countryCode":"ZW",
     "name":"Zimbabwe",
     "population":"16529904",
     "coordinates":{
        "latitude":-20,
        "longitude":30
     }
  }
]